id,label,lat,lng,location
1,Abakan,53.7167,91.4167,2932 University Drive
2,Akimiski Island,52.997486,-81.319298,Afghanistan
3,Alaska,63.588753,-154.493062,Alder St
4,Alberta,55,-115,Amsterdam
5,Andorra,42.546245,1.601554,Marshall Avenue
6,Maldives,3.202778,73.22068,Boston
7,Arkhangelsk,64.55,40.5333,Bowling Green
8,Aruba,12.52111,-69.968338,Bremerhaven
9,Australia,-28.0167,153.4,Bronx
10,Baffin Island,66.830925,-69.6008,Buenos Aires
